timestamp,date,latitude,longitude
1635960847,"2021-11-03 17:34:07",46.728034,-117.165548
1635961264,"2021-11-03 17:41:04",46.729179,-117.164861
1635961272,"2021-11-03 17:41:12",46.728414,-117.165331
1635961303,"2021-11-03 17:41:43",46.72878,-117.165249
1635962134,"2021-11-03 17:55:34",46.73126,-117.169224
1635962279,"2021-11-03 17:57:59",46.731076,-117.167567
1635962555,"2021-11-03 18:02:35",46.730749,-117.167103
1635962614,"2021-11-03 18:03:34",46.730751,-117.167063
1635962670,"2021-11-03 18:04:30",46.730533,-117.167452
1635963136,"2021-11-03 18:12:16",46.73081,-117.166799
1635963187,"2021-11-03 18:13:07",46.730081,-117.168114
1635963558,"2021-11-03 18:19:18",46.730724,-117.16731
1635963617,"2021-11-03 18:20:17",46.73071,-117.167297
1635963674,"2021-11-03 18:21:14",46.730046,-117.168047
1635963766,"2021-11-03 18:22:46",46.730696,-117.16776
1635963796,"2021-11-03 18:23:16",46.730772,-117.166889
1635965920,"2021-11-03 18:58:40",46.73086,-117.166929
1635966111,"2021-11-03 19:01:51",46.730227,-117.16803
1635966195,"2021-11-03 19:03:15",46.730392,-117.168507
1635966361,"2021-11-03 19:06:01",46.730369,-117.167724
1635966364,"2021-11-03 19:06:04",46.730128,-117.168233
1635966455,"2021-11-03 19:07:35",46.73003,-117.168063
1635966836,"2021-11-03 19:13:56",46.730015,-117.168092
1635969013,"2021-11-03 19:50:13",46.73002,-117.168062
1635971749,"2021-11-03 20:35:49",46.740458,-117.162496
1635971838,"2021-11-03 20:37:18",46.740457,-117.162503
1635973446,"2021-11-03 21:04:06",46.740456,-117.162497
1635973888,"2021-11-03 21:11:28",46.739554,-117.171975
1635974553,"2021-11-03 21:22:33",46.740463,-117.162495
1635975183,"2021-11-03 21:33:03",46.739743,-117.162709
1635975202,"2021-11-03 21:33:22",46.740458,-117.162502
1635975242,"2021-11-03 21:34:02",46.739743,-117.162709
1635975273,"2021-11-03 21:34:33",46.740471,-117.162508
1635975527,"2021-11-03 21:38:47",46.740325,-117.162573
1635975560,"2021-11-03 21:39:20",46.738543,-117.163582
1635982429,"2021-11-03 23:33:49",46.740065,-117.162055
1635982510,"2021-11-03 23:35:10",46.740458,-117.162493
1635982942,"2021-11-03 23:42:22",46.740464,-117.162496
1635983289,"2021-11-03 23:48:09",46.740465,-117.162501
1635983854,"2021-11-03 23:57:34",46.74045,-117.162505
1635984097,"2021-11-04 00:01:37",46.739681,-117.164225
1635984119,"2021-11-04 00:01:59",46.740449,-117.162489
1636141360,"2021-11-05 19:42:40",46.740459,-117.16249
1636141543,"2021-11-05 19:45:43",46.74039,-117.162507
1636141558,"2021-11-05 19:45:58",46.74036,-117.162524
1636141693,"2021-11-05 19:48:13",46.740364,-117.162489
1636141878,"2021-11-05 19:51:18",46.740393,-117.162527
1636142179,"2021-11-05 19:56:19",46.740442,-117.162612
1636143702,"2021-11-05 20:21:42",46.740687,-117.162397
1636143724,"2021-11-05 20:22:04",46.740305,-117.162562
1636143786,"2021-11-05 20:23:06",46.740114,-117.164175
1636143793,"2021-11-05 20:23:13",46.740193,-117.163529
1636143821,"2021-11-05 20:23:41",46.739999,-117.163843
1636143849,"2021-11-05 20:24:09",46.739803,-117.164256
1636143880,"2021-11-05 20:24:40",46.739402,-117.165053
1636143942,"2021-11-05 20:25:42",46.739057,-117.165547
1636143974,"2021-11-05 20:26:14",46.739127,-117.166189
1636144003,"2021-11-05 20:26:43",46.738942,-117.166543
1636144034,"2021-11-05 20:27:14",46.7388,-117.167154
1636144093,"2021-11-05 20:28:13",46.738856,-117.167543
1636144099,"2021-11-05 20:28:19",46.738986,-117.167902
1636144131,"2021-11-05 20:28:51",46.738947,-117.168361
1636144162,"2021-11-05 20:29:22",46.738872,-117.168999
1636144182,"2021-11-05 20:29:42",46.739367,-117.169331
1636144194,"2021-11-05 20:29:54",46.739089,-117.169491
1636144213,"2021-11-05 20:30:13",46.739371,-117.169627
1636144226,"2021-11-05 20:30:26",46.739097,-117.169682
1636144291,"2021-11-05 20:31:31",46.738714,-117.169896
1636144303,"2021-11-05 20:31:43",46.739275,-117.169576
1636144355,"2021-11-05 20:32:35",46.739253,-117.1704
1636144453,"2021-11-05 20:34:13",46.739208,-117.16989
1636144487,"2021-11-05 20:34:47",46.739191,-117.170405
1636144507,"2021-11-05 20:35:07",46.739213,-117.169907
1636144516,"2021-11-05 20:35:16",46.739185,-117.170406
1636144546,"2021-11-05 20:35:46",46.739231,-117.16996
1636144783,"2021-11-05 20:39:43",46.739362,-117.170388
1636144922,"2021-11-05 20:42:02",46.739089,-117.170012
1636145689,"2021-11-05 20:54:49",46.738796,-117.169981
1636145739,"2021-11-05 20:55:39",46.739243,-117.169505
1636145803,"2021-11-05 20:56:43",46.738844,-117.168824
1636145837,"2021-11-05 20:57:17",46.739193,-117.168038
1636145867,"2021-11-05 20:57:47",46.73947,-117.167898
1636145898,"2021-11-05 20:58:18",46.739055,-117.167917
1636145929,"2021-11-05 20:58:49",46.739163,-117.166848
1636145989,"2021-11-05 20:59:49",46.739526,-117.16598
1636146048,"2021-11-05 21:00:48",46.739792,-117.165226
1636146079,"2021-11-05 21:01:19",46.739876,-117.164823
1636146139,"2021-11-05 21:02:19",46.740262,-117.164275
1636146168,"2021-11-05 21:02:48",46.740311,-117.163773
1636146199,"2021-11-05 21:03:19",46.740203,-117.163254
1636146228,"2021-11-05 21:03:48",46.740132,-117.162538
1636146307,"2021-11-05 21:05:07",46.740457,-117.162501
1636148705,"2021-11-05 21:45:05",46.740446,-117.162511
1636151709,"2021-11-05 22:35:09",46.740465,-117.162505
1636152778,"2021-11-05 22:52:58",46.740465,-117.162505
1636154597,"2021-11-05 23:23:17",46.740484,-117.162498
1636157413,"2021-11-06 00:10:13",46.740484,-117.162498
1636159223,"2021-11-06 00:40:23",46.740484,-117.162498
1636163062,"2021-11-06 01:44:22",46.74033,-117.162738
1636166030,"2021-11-06 02:33:50",46.74033,-117.162738
1636166137,"2021-11-06 02:35:37",46.7401,-117.162456
1636166957,"2021-11-06 02:49:17",46.74002,-117.162445
1636167730,"2021-11-06 03:02:10",46.740464,-117.162491
1636171004,"2021-11-06 03:56:44",46.740472,-117.162495
1636171964,"2021-11-06 04:12:44",46.74047,-117.162495
1636172881,"2021-11-06 04:28:01",46.740445,-117.162486
1636173808,"2021-11-06 04:43:28",46.740467,-117.162497
1636174653,"2021-11-06 04:57:33",46.740227,-117.162696
1636174708,"2021-11-06 04:58:28",46.740474,-117.162493
1636176999,"2021-11-06 05:36:39",46.740464,-117.162485
1636177905,"2021-11-06 05:51:45",46.740467,-117.162487
1636178546,"2021-11-06 06:02:26",46.740465,-117.162494
1636180392,"2021-11-06 06:33:12",46.740471,-117.162485
1636181466,"2021-11-06 06:51:06",46.740468,-117.16249
1636182394,"2021-11-06 07:06:34",46.740474,-117.16249
1636182485,"2021-11-06 07:08:05",46.74088,-117.162425
1636182557,"2021-11-06 07:09:17",46.740466,-117.162483
1636183366,"2021-11-06 07:22:46",46.740462,-117.16249
1636185509,"2021-11-06 07:58:29",46.740472,-117.162491
1636187207,"2021-11-06 08:26:47",46.740472,-117.162511
1636190071,"2021-11-06 09:14:31",46.740465,-117.162489
1636193279,"2021-11-06 10:07:59",46.740474,-117.162473
1636195936,"2021-11-06 10:52:16",46.740474,-117.162473
1636196995,"2021-11-06 11:09:55",46.740474,-117.162473
1636201002,"2021-11-06 12:16:42",46.740436,-117.162366
1636203732,"2021-11-06 13:02:12",46.740436,-117.162366
1636206563,"2021-11-06 13:49:23",46.740436,-117.162366
1636209139,"2021-11-06 14:32:19",46.740436,-117.162366
1636211170,"2021-11-06 15:06:10",46.740466,-117.162491
1636221833,"2021-11-06 18:03:53",46.740473,-117.162496
1636222734,"2021-11-06 18:18:54",46.740454,-117.162527
1636233879,"2021-11-06 21:24:39",46.712465,-117.176052
1636234918,"2021-11-06 21:41:58",46.740464,-117.16249
1636237816,"2021-11-06 22:30:16",46.740469,-117.162486
1636238824,"2021-11-06 22:47:04",46.74047,-117.162495
1636239831,"2021-11-06 23:03:51",46.740467,-117.162493
1636240892,"2021-11-06 23:21:32",46.740477,-117.162492
1636241316,"2021-11-06 23:28:36",46.740475,-117.162492
1636398319,"2021-11-08 19:05:19",46.740463,-117.162501
1636398357,"2021-11-08 19:05:57",46.740565,-117.163133
1636398374,"2021-11-08 19:06:14",46.740468,-117.162526
1636402429,"2021-11-08 20:13:49",46.740465,-117.162493
1636403335,"2021-11-08 20:28:55",46.740473,-117.162496
1636404257,"2021-11-08 20:44:17",46.740457,-117.162507
1636404579,"2021-11-08 20:49:39",46.73997,-117.162609
1636404614,"2021-11-08 20:50:14",46.739816,-117.163187
1636404645,"2021-11-08 20:50:45",46.740085,-117.163496
1636404650,"2021-11-08 20:50:50",46.739774,-117.163767
1636404677,"2021-11-08 20:51:17",46.739942,-117.1643
1636404708,"2021-11-08 20:51:48",46.739669,-117.16466
1636404739,"2021-11-08 20:52:19",46.739343,-117.165613
1636404769,"2021-11-08 20:52:49",46.738968,-117.166243
1636404799,"2021-11-08 20:53:19",46.738867,-117.166784
1636404830,"2021-11-08 20:53:50",46.738555,-117.167512
1636404860,"2021-11-08 20:54:20",46.738315,-117.167907
1636404919,"2021-11-08 20:55:19",46.737638,-117.168076
1636404980,"2021-11-08 20:56:20",46.736596,-117.16817
1636405010,"2021-11-08 20:56:50",46.736321,-117.168224
1636405039,"2021-11-08 20:57:19",46.73587,-117.168336
1636405070,"2021-11-08 20:57:50",46.735574,-117.168297
1636405100,"2021-11-08 20:58:20",46.73524,-117.167948
1636405129,"2021-11-08 20:58:49",46.734873,-117.167811
1636405159,"2021-11-08 20:59:19",46.734313,-117.167951
1636405190,"2021-11-08 20:59:50",46.733994,-117.167892
1636405209,"2021-11-08 21:00:09",46.733469,-117.167778
1636405241,"2021-11-08 21:00:41",46.733207,-117.16796
1636405275,"2021-11-08 21:01:15",46.73263,-117.168049
1636405305,"2021-11-08 21:01:45",46.732472,-117.167274
1636405339,"2021-11-08 21:02:19",46.73197,-117.167124
1636405369,"2021-11-08 21:02:49",46.731883,-117.166659
1636405400,"2021-11-08 21:03:20",46.731343,-117.166752
1636405430,"2021-11-08 21:03:50",46.730974,-117.167015
1636405461,"2021-11-08 21:04:21",46.730609,-117.167503
1636405494,"2021-11-08 21:04:54",46.730736,-117.167025
1636408459,"2021-11-08 21:54:19",46.730774,-117.166896
1636408802,"2021-11-08 22:00:02",46.730686,-117.167445
1636408878,"2021-11-08 22:01:18",46.730163,-117.168073
1636408894,"2021-11-08 22:01:34",46.730818,-117.167318
1636408910,"2021-11-08 22:01:50",46.730427,-117.173665
1636408924,"2021-11-08 22:02:04",46.730747,-117.167432
1636408954,"2021-11-08 22:02:34",46.731036,-117.167362
1636409015,"2021-11-08 22:03:35",46.731686,-117.167582
1636409037,"2021-11-08 22:03:57",46.731332,-117.16683
1636409045,"2021-11-08 22:04:05",46.731893,-117.167665
1636409068,"2021-11-08 22:04:28",46.732483,-117.167407
1636409074,"2021-11-08 22:04:34",46.732189,-117.167916
1636409102,"2021-11-08 22:05:02",46.73266,-117.1681
1636409164,"2021-11-08 22:06:04",46.733213,-117.167973
1636409194,"2021-11-08 22:06:34",46.733515,-117.167941
1636409224,"2021-11-08 22:07:04",46.733832,-117.167846
1636409284,"2021-11-08 22:08:04",46.734473,-117.167887
1636409314,"2021-11-08 22:08:34",46.734881,-117.167806
1636409344,"2021-11-08 22:09:04",46.735259,-117.16796
1636409374,"2021-11-08 22:09:34",46.735597,-117.16824
1636409404,"2021-11-08 22:10:04",46.735944,-117.168277
1636409434,"2021-11-08 22:10:34",46.736239,-117.168307
1636409450,"2021-11-08 22:10:50",46.735968,-117.167933
1636409464,"2021-11-08 22:11:04",46.736599,-117.168231
1636409482,"2021-11-08 22:11:22",46.736337,-117.167925
1636409494,"2021-11-08 22:11:34",46.737004,-117.168109
1636409513,"2021-11-08 22:11:53",46.737267,-117.167889
1636409544,"2021-11-08 22:12:24",46.738108,-117.168229
1636409672,"2021-11-08 22:14:32",46.738508,-117.169429
1636409704,"2021-11-08 22:15:04",46.738297,-117.167949
1636409734,"2021-11-08 22:15:34",46.738795,-117.167066
1636409764,"2021-11-08 22:16:04",46.738945,-117.166433
1636409794,"2021-11-08 22:16:34",46.739044,-117.165923
1636409824,"2021-11-08 22:17:04",46.739312,-117.165324
1636409854,"2021-11-08 22:17:34",46.739446,-117.164855
1636409884,"2021-11-08 22:18:04",46.739609,-117.164373
1636409914,"2021-11-08 22:18:34",46.739928,-117.163918
1636409944,"2021-11-08 22:19:04",46.740055,-117.163382
1636409974,"2021-11-08 22:19:34",46.740142,-117.162887
1636410004,"2021-11-08 22:20:04",46.740192,-117.162291
1636410034,"2021-11-08 22:20:34",46.740225,-117.161808
1636410064,"2021-11-08 22:21:04",46.740533,-117.161645
1636410095,"2021-11-08 22:21:35",46.740735,-117.161291
1636410153,"2021-11-08 22:22:33",46.740317,-117.160927
1636410184,"2021-11-08 22:23:04",46.740563,-117.161704
1636410215,"2021-11-08 22:23:35",46.740412,-117.162549
1636410754,"2021-11-08 22:32:34",46.740468,-117.162498
1636414177,"2021-11-08 23:29:37",46.74046,-117.162506
1636414335,"2021-11-08 23:32:15",46.740143,-117.162441
1636414390,"2021-11-08 23:33:10",46.740465,-117.162499
1636415269,"2021-11-08 23:47:49",46.740465,-117.162499
1636419202,"2021-11-09 00:53:22",46.740465,-117.162499
1636421463,"2021-11-09 01:31:03",46.740465,-117.162494
1636422366,"2021-11-09 01:46:06",46.740465,-117.162494
1636423443,"2021-11-09 02:04:03",46.740456,-117.162514
1636426440,"2021-11-09 02:54:00",46.740465,-117.162498
1636428194,"2021-11-09 03:23:14",46.740474,-117.16249
1636429101,"2021-11-09 03:38:21",46.740474,-117.162489
1636431904,"2021-11-09 04:25:04",46.740465,-117.162495
1636434428,"2021-11-09 05:07:08",46.740592,-117.162517
1636437334,"2021-11-09 05:55:34",46.740592,-117.162517
1636438768,"2021-11-09 06:19:28",46.740592,-117.162517
1636441691,"2021-11-09 07:08:11",46.740471,-117.162502
1636444619,"2021-11-09 07:56:59",46.740471,-117.162502
1636447484,"2021-11-09 08:44:44",46.740471,-117.162502
1636449196,"2021-11-09 09:13:16",46.740468,-117.162492
1636449228,"2021-11-09 09:13:48",46.740866,-117.162564
1636451905,"2021-11-09 09:58:25",46.740866,-117.162564
1636451907,"2021-11-09 09:58:27",46.740471,-117.162488
1636452935,"2021-11-09 10:15:35",46.740471,-117.162479
1636456366,"2021-11-09 11:12:46",46.740475,-117.162487
1636460299,"2021-11-09 12:18:19",46.740467,-117.162474
1636463206,"2021-11-09 13:06:46",46.740474,-117.162491
1636466162,"2021-11-09 13:56:02",46.740474,-117.162491
1636469090,"2021-11-09 14:44:50",46.740474,-117.162491
1636470500,"2021-11-09 15:08:20",46.740473,-117.162496
1636474252,"2021-11-09 16:10:52",46.740608,-117.162545
1636477008,"2021-11-09 16:56:48",46.740608,-117.162545
1636479943,"2021-11-09 17:45:43",46.740608,-117.162545
1636482031,"2021-11-09 18:20:31",46.740465,-117.162506
1636484131,"2021-11-09 18:55:31",46.740633,-117.162375
1636484872,"2021-11-09 19:07:52",46.740471,-117.162507
1636485239,"2021-11-09 19:13:59",46.740082,-117.16227
1636485268,"2021-11-09 19:14:28",46.740479,-117.162609
1636485389,"2021-11-09 19:16:29",46.740256,-117.162203
1636485419,"2021-11-09 19:16:59",46.740718,-117.16249
1636485449,"2021-11-09 19:17:29",46.74031,-117.162437
1636486110,"2021-11-09 19:28:30",46.740574,-117.162537
1636489472,"2021-11-09 20:24:32",46.740484,-117.162607
1636489725,"2021-11-09 20:28:45",46.740482,-117.162638
1636491202,"2021-11-09 20:53:22",46.740436,-117.162433
1636491690,"2021-11-09 21:01:30",46.740264,-117.161333
1636491751,"2021-11-09 21:02:31",46.740386,-117.160132
1636491810,"2021-11-09 21:03:30",46.740387,-117.15919
1636491840,"2021-11-09 21:04:00",46.740293,-117.158769
1636491870,"2021-11-09 21:04:30",46.740309,-117.158208
1636491900,"2021-11-09 21:05:00",46.740001,-117.157742
1636491930,"2021-11-09 21:05:30",46.739997,-117.157205
1636491954,"2021-11-09 21:05:54",46.73973,-117.155813
1636491960,"2021-11-09 21:06:00",46.73998,-117.156394
1636491990,"2021-11-09 21:06:30",46.739835,-117.155969
1636492015,"2021-11-09 21:06:55",46.742205,-117.157732
1636492020,"2021-11-09 21:07:00",46.739984,-117.15564
1636492047,"2021-11-09 21:07:27",46.739654,-117.155449
1636492080,"2021-11-09 21:08:00",46.739309,-117.15523
1636492110,"2021-11-09 21:08:30",46.738886,-117.155452
1636492140,"2021-11-09 21:09:00",46.738619,-117.155825
1636492170,"2021-11-09 21:09:30",46.738302,-117.1558
1636492201,"2021-11-09 21:10:01",46.737961,-117.155962
1636492230,"2021-11-09 21:10:30",46.7376,-117.155926
1636492260,"2021-11-09 21:11:00",46.737204,-117.156147
1636492320,"2021-11-09 21:12:00",46.736669,-117.156921
1636492350,"2021-11-09 21:12:30",46.736359,-117.157019
1636492381,"2021-11-09 21:13:01",46.736,-117.15748
1636492410,"2021-11-09 21:13:30",46.735727,-117.157381
1636492440,"2021-11-09 21:14:00",46.73531,-117.156989
1636492470,"2021-11-09 21:14:30",46.734938,-117.157207
1636492524,"2021-11-09 21:15:24",46.732703,-117.159107
1636492530,"2021-11-09 21:15:30",46.73455,-117.157606
1636492590,"2021-11-09 21:16:30",46.733887,-117.158091
1636492650,"2021-11-09 21:17:30",46.733496,-117.158482
1636492681,"2021-11-09 21:18:01",46.73305,-117.158834
1636492710,"2021-11-09 21:18:30",46.732587,-117.15832
1636492740,"2021-11-09 21:19:00",46.732328,-117.158589
1636492770,"2021-11-09 21:19:30",46.731966,-117.158908
1636492801,"2021-11-09 21:20:01",46.731431,-117.15876
1636492860,"2021-11-09 21:21:00",46.730909,-117.159066
1636492891,"2021-11-09 21:21:31",46.730339,-117.159462
1636492921,"2021-11-09 21:22:01",46.730165,-117.160095
1636492950,"2021-11-09 21:22:30",46.729851,-117.159647
1636492980,"2021-11-09 21:23:00",46.729524,-117.159942
1636493010,"2021-11-09 21:23:30",46.729328,-117.160524
1636493041,"2021-11-09 21:24:01",46.728889,-117.160944
1636493070,"2021-11-09 21:24:30",46.728879,-117.161507
1636493100,"2021-11-09 21:25:00",46.728605,-117.16184
1636493126,"2021-11-09 21:25:26",46.72867,-117.162368
1636493158,"2021-11-09 21:25:58",46.728592,-117.163022
1636493189,"2021-11-09 21:26:29",46.728155,-117.163383
1636493221,"2021-11-09 21:27:01",46.72795,-117.163972
1636493250,"2021-11-09 21:27:30",46.72823,-117.164365
1636493280,"2021-11-09 21:28:00",46.727793,-117.164978
1636493309,"2021-11-09 21:28:29",46.727981,-117.165486
1636493365,"2021-11-09 21:29:25",46.728057,-117.165906
1636496243,"2021-11-09 22:17:23",46.728177,-117.165852
1636497612,"2021-11-09 22:40:12",46.728164,-117.16576
1636497990,"2021-11-09 22:46:30",46.725043,-117.171813
1636498053,"2021-11-09 22:47:33",46.728068,-117.165586
1636498180,"2021-11-09 22:49:40",46.728109,-117.165715
1636498290,"2021-11-09 22:51:30",46.727646,-117.165157
1636498383,"2021-11-09 22:53:03",46.728126,-117.163983
1636498433,"2021-11-09 22:53:53",46.728195,-117.163345
1636498472,"2021-11-09 22:54:32",46.728558,-117.163033
1636498493,"2021-11-09 22:54:53",46.728355,-117.162699
1636498503,"2021-11-09 22:55:03",46.728642,-117.162102
1636498523,"2021-11-09 22:55:23",46.728343,-117.161504
1636498534,"2021-11-09 22:55:34",46.728778,-117.161712
1636498564,"2021-11-09 22:56:04",46.729044,-117.161144
1636498592,"2021-11-09 22:56:32",46.729823,-117.160369
1636498612,"2021-11-09 22:56:52",46.72953,-117.160844
1636498623,"2021-11-09 22:57:03",46.729526,-117.160162
1636498680,"2021-11-09 22:58:00",46.729968,-117.160089
1636498703,"2021-11-09 22:58:23",46.730117,-117.159599
1636498713,"2021-11-09 22:58:33",46.730461,-117.15942
1636498764,"2021-11-09 22:59:24",46.731204,-117.159195
1636498773,"2021-11-09 22:59:33",46.730748,-117.159193
1636498792,"2021-11-09 22:59:52",46.734936,-117.159873
1636498803,"2021-11-09 23:00:03",46.730695,-117.1599
1636498823,"2021-11-09 23:00:23",46.730655,-117.160376
1636498854,"2021-11-09 23:00:54",46.730549,-117.160948
1636498887,"2021-11-09 23:01:27",46.730566,-117.161525
1636498921,"2021-11-09 23:02:01",46.730871,-117.161781
1636498980,"2021-11-09 23:03:00",46.730998,-117.162397
1636499055,"2021-11-09 23:04:15",46.731468,-117.162305
1636499112,"2021-11-09 23:05:12",46.731074,-117.162681
1636499164,"2021-11-09 23:06:04",46.731453,-117.162334
1636499259,"2021-11-09 23:07:39",46.731108,-117.162228
1636500322,"2021-11-09 23:25:22",46.730701,-117.161733
1636500388,"2021-11-09 23:26:28",46.730762,-117.160399
1636500396,"2021-11-09 23:26:36",46.730794,-117.160862
1636500421,"2021-11-09 23:27:01",46.730638,-117.160444
1636500456,"2021-11-09 23:27:36",46.730874,-117.159494
1636500517,"2021-11-09 23:28:37",46.731168,-117.158715
1636500547,"2021-11-09 23:29:07",46.731515,-117.158653
1636500605,"2021-11-09 23:30:05",46.732118,-117.158631
1636500636,"2021-11-09 23:30:36",46.7325,-117.158535
1636500672,"2021-11-09 23:31:12",46.732771,-117.158481
1636500696,"2021-11-09 23:31:36",46.733146,-117.158427
1636500756,"2021-11-09 23:32:36",46.73355,-117.158048
1636500785,"2021-11-09 23:33:05",46.733932,-117.157887
1636500815,"2021-11-09 23:33:35",46.734118,-117.157567
1636500846,"2021-11-09 23:34:06",46.734469,-117.157621
1636500876,"2021-11-09 23:34:36",46.734696,-117.157284
1636500905,"2021-11-09 23:35:05",46.734975,-117.156911
1636500936,"2021-11-09 23:35:36",46.735304,-117.157047
1636500996,"2021-11-09 23:36:36",46.735786,-117.157273
1636501055,"2021-11-09 23:37:35",46.736475,-117.15697
1636501085,"2021-11-09 23:38:05",46.73673,-117.156534
1636501115,"2021-11-09 23:38:35",46.737067,-117.156187
1636501141,"2021-11-09 23:39:01",46.737372,-117.15632
1636501146,"2021-11-09 23:39:06",46.737475,-117.155954
1636501172,"2021-11-09 23:39:32",46.742023,-117.155036
1636501203,"2021-11-09 23:40:03",46.737709,-117.155663
1636501234,"2021-11-09 23:40:34",46.738108,-117.155506
1636501265,"2021-11-09 23:41:05",46.738448,-117.155604
1636501295,"2021-11-09 23:41:35",46.739251,-117.155401
1636501355,"2021-11-09 23:42:35",46.739898,-117.155452
1636501386,"2021-11-09 23:43:06",46.739953,-117.155966
1636501415,"2021-11-09 23:43:35",46.73992,-117.156411
1636501445,"2021-11-09 23:44:05",46.739949,-117.157022
1636501475,"2021-11-09 23:44:35",46.739978,-117.157579
1636501506,"2021-11-09 23:45:06",46.740135,-117.15812
1636501517,"2021-11-09 23:45:17",46.742468,-117.158742
1636501535,"2021-11-09 23:45:35",46.740204,-117.158589
1636501565,"2021-11-09 23:46:05",46.74035,-117.159239
1636501595,"2021-11-09 23:46:35",46.740378,-117.159767
1636501611,"2021-11-09 23:46:51",46.740357,-117.160176
1636501656,"2021-11-09 23:47:36",46.740516,-117.160749
1636501686,"2021-11-09 23:48:06",46.740635,-117.161136
1636501715,"2021-11-09 23:48:35",46.740563,-117.161682
1636501746,"2021-11-09 23:49:06",46.7405,-117.16216
1636501776,"2021-11-09 23:49:36",46.740325,-117.162521
1636502105,"2021-11-09 23:55:05",46.740765,-117.162322
1636502111,"2021-11-09 23:55:11",46.740463,-117.162494
1636504388,"2021-11-10 00:33:08",46.740448,-117.162498
1636505604,"2021-11-10 00:53:24",46.74045,-117.162492
1636506544,"2021-11-10 01:09:04",46.740472,-117.16251
1636507445,"2021-11-10 01:24:05",46.740472,-117.16251
1636508631,"2021-11-10 01:43:51",46.740457,-117.162502
1636509546,"2021-11-10 01:59:06",46.740462,-117.162499
1636510470,"2021-11-10 02:14:30",46.740458,-117.162492
1636511396,"2021-11-10 02:29:56",46.740458,-117.162492
1636512304,"2021-11-10 02:45:04",46.740465,-117.162511
1636513207,"2021-11-10 03:00:07",46.740473,-117.162495
1636514117,"2021-11-10 03:15:17",46.740465,-117.162501
1636515032,"2021-11-10 03:30:32",46.740473,-117.162491
1636515985,"2021-11-10 03:46:25",46.740458,-117.162493
1636516944,"2021-11-10 04:02:24",46.740461,-117.162486
1636517868,"2021-11-10 04:17:48",46.740461,-117.162486
1636518769,"2021-11-10 04:32:49",46.740463,-117.162499
1636519915,"2021-11-10 04:51:55",46.740463,-117.162499
1636520862,"2021-11-10 05:07:42",46.74046,-117.162488
1636521767,"2021-11-10 05:22:47",46.74046,-117.162488
1636522368,"2021-11-10 05:32:48",46.740022,-117.162813
1636525344,"2021-11-10 06:22:24",46.740022,-117.162813
1636525376,"2021-11-10 06:22:56",46.740471,-117.162495
1636528718,"2021-11-10 07:18:38",46.740467,-117.162495
1636529756,"2021-11-10 07:35:56",46.740464,-117.162494
1636530830,"2021-11-10 07:53:50",46.740465,-117.162492
1636531801,"2021-11-10 08:10:01",46.740465,-117.162492
1636532331,"2021-11-10 08:18:51",46.740823,-117.162396
1636532404,"2021-11-10 08:20:04",46.740465,-117.162502
1636535319,"2021-11-10 09:08:39",46.740465,-117.162502
1636538793,"2021-11-10 10:06:33",46.740465,-117.162502
1636541751,"2021-11-10 10:55:51",46.740465,-117.162502
1636544617,"2021-11-10 11:43:37",46.740467,-117.162498
1636547468,"2021-11-10 12:31:08",46.740467,-117.162498
1636550367,"2021-11-10 13:19:27",46.740467,-117.162498
1636553347,"2021-11-10 14:09:07",46.740467,-117.162498
1636556320,"2021-11-10 14:58:40",46.740467,-117.162498
1636559151,"2021-11-10 15:45:51",46.740466,-117.162506
1636562087,"2021-11-10 16:34:47",46.740466,-117.162506
1636563117,"2021-11-10 16:51:57",46.740457,-117.162505
1636563219,"2021-11-10 16:53:39",46.740616,-117.161946
1636563252,"2021-11-10 16:54:12",46.740097,-117.162482
1636563277,"2021-11-10 16:54:37",46.740088,-117.162882
1636563295,"2021-11-10 16:54:55",46.740086,-117.163286
1636563314,"2021-11-10 16:55:14",46.73995,-117.163627
1636563335,"2021-11-10 16:55:35",46.739851,-117.163997
1636563354,"2021-11-10 16:55:54",46.739682,-117.164334
1636563372,"2021-11-10 16:56:12",46.739514,-117.164665
1636563393,"2021-11-10 16:56:33",46.739382,-117.165026
1636563413,"2021-11-10 16:56:53",46.739235,-117.165366
1636563433,"2021-11-10 16:57:13",46.739106,-117.165728
1636563454,"2021-11-10 16:57:34",46.738989,-117.166098
1636563473,"2021-11-10 16:57:53",46.738896,-117.166479
1636563492,"2021-11-10 16:58:12",46.738803,-117.16686
1636563513,"2021-11-10 16:58:33",46.738691,-117.16722
1636563532,"2021-11-10 16:58:52",46.738614,-117.167601
1636563554,"2021-11-10 16:59:14",46.738405,-117.167861
1636563595,"2021-11-10 16:59:55",46.738125,-117.167875
1636563686,"2021-11-10 17:01:26",46.737779,-117.16765
1636563715,"2021-11-10 17:01:55",46.737227,-117.168549
1636563775,"2021-11-10 17:02:55",46.736313,-117.168461
1636563806,"2021-11-10 17:03:26",46.735706,-117.168159
1636563858,"2021-11-10 17:04:18",46.735276,-117.167729
1636563890,"2021-11-10 17:04:50",46.735633,-117.168284
1636563896,"2021-11-10 17:04:56",46.735019,-117.16782
1636563923,"2021-11-10 17:05:23",46.734609,-117.167812
1636563953,"2021-11-10 17:05:53",46.734063,-117.167979
1636563984,"2021-11-10 17:06:24",46.73348,-117.16794
1636564014,"2021-11-10 17:06:54",46.733086,-117.167913
1636564047,"2021-11-10 17:07:27",46.732758,-117.167993
1636564075,"2021-11-10 17:07:55",46.732238,-117.167976
1636564136,"2021-11-10 17:08:56",46.731654,-117.168207
1636564195,"2021-11-10 17:09:55",46.730721,-117.168182
1636564225,"2021-11-10 17:10:25",46.730373,-117.16843
1636564260,"2021-11-10 17:11:00",46.730138,-117.168117
1636565761,"2021-11-10 17:36:01",46.730122,-117.16812
1636567307,"2021-11-10 18:01:47",46.729503,-117.168081
1636567341,"2021-11-10 18:02:21",46.729343,-117.167757
1636567364,"2021-11-10 18:02:44",46.729263,-117.167819
1636567400,"2021-11-10 18:03:20",46.729029,-117.167184
1636567460,"2021-11-10 18:04:20",46.728587,-117.166947
1636567490,"2021-11-10 18:04:50",46.728435,-117.16614
1636567550,"2021-11-10 18:05:50",46.728152,-117.165844
1636569773,"2021-11-10 18:42:53",46.728092,-117.165632
1636570681,"2021-11-10 18:58:01",46.728104,-117.165634
1636571622,"2021-11-10 19:13:42",46.728104,-117.165634
1636572539,"2021-11-10 19:28:59",46.72817,-117.165836
1636573521,"2021-11-10 19:45:21",46.728124,-117.165847
1636574596,"2021-11-10 20:03:16",46.728269,-117.165962
1636574607,"2021-11-10 20:03:27",46.728132,-117.166344
1636574638,"2021-11-10 20:03:58",46.728484,-117.166431
1636574667,"2021-11-10 20:04:27",46.728313,-117.16707
1636574696,"2021-11-10 20:04:56",46.728844,-117.167026
1636574726,"2021-11-10 20:05:26",46.729222,-117.167127
1636574752,"2021-11-10 20:05:52",46.729284,-117.167591
1636574783,"2021-11-10 20:06:23",46.729751,-117.167592
1636574814,"2021-11-10 20:06:54",46.729343,-117.168282
1636574822,"2021-11-10 20:07:02",46.729767,-117.168196
1636574881,"2021-11-10 20:08:01",46.730106,-117.168103
1636577398,"2021-11-10 20:49:58",46.730122,-117.168117
1636578396,"2021-11-10 21:06:36",46.729965,-117.168163
1636579422,"2021-11-10 21:23:42",46.729965,-117.168159
1636580331,"2021-11-10 21:38:51",46.72999,-117.168105
1636581265,"2021-11-10 21:54:25",46.72999,-117.168105
1636581872,"2021-11-10 22:04:32",46.730597,-117.168131
1636581901,"2021-11-10 22:05:01",46.731006,-117.168343
1636581923,"2021-11-10 22:05:23",46.730822,-117.168986
1636581930,"2021-11-10 22:05:30",46.731158,-117.168235
1636581960,"2021-11-10 22:06:00",46.731472,-117.168215
1636581986,"2021-11-10 22:06:26",46.731798,-117.168249
1636582019,"2021-11-10 22:06:59",46.732396,-117.16832
1636582036,"2021-11-10 22:07:16",46.732084,-117.168044
1636582069,"2021-11-10 22:07:49",46.732476,-117.168068
1636582099,"2021-11-10 22:08:19",46.732988,-117.167717
1636582129,"2021-11-10 22:08:49",46.733274,-117.167988
1636582158,"2021-11-10 22:09:18",46.73359,-117.167904
1636582189,"2021-11-10 22:09:49",46.734049,-117.167865
1636582218,"2021-11-10 22:10:18",46.734418,-117.167858
1636582275,"2021-11-10 22:11:15",46.735266,-117.167688
1636582306,"2021-11-10 22:11:46",46.735523,-117.168062
1636582339,"2021-11-10 22:12:19",46.73588,-117.168313
1636582369,"2021-11-10 22:12:49",46.736499,-117.168174
1636582398,"2021-11-10 22:13:18",46.736811,-117.168119
1636582461,"2021-11-10 22:14:21",46.737395,-117.168225
1636582489,"2021-11-10 22:14:49",46.737996,-117.168142
1636582549,"2021-11-10 22:15:49",46.738273,-117.168127
1636582579,"2021-11-10 22:16:19",46.738621,-117.167416
1636582609,"2021-11-10 22:16:49",46.738828,-117.166555
1636582638,"2021-11-10 22:17:18",46.739053,-117.166224
1636582656,"2021-11-10 22:17:36",46.739235,-117.165363
1636582720,"2021-11-10 22:18:40",46.739309,-117.16498
1636582728,"2021-11-10 22:18:48",46.739597,-117.164622
1636582758,"2021-11-10 22:19:18",46.739787,-117.163531
1636582788,"2021-11-10 22:19:48",46.740063,-117.163504
1636582818,"2021-11-10 22:20:18",46.740193,-117.163
1636582849,"2021-11-10 22:20:49",46.740361,-117.162402
1636585797,"2021-11-10 23:09:57",46.740486,-117.162594
1636586716,"2021-11-10 23:25:16",46.740471,-117.162503
1636587650,"2021-11-10 23:40:50",46.740471,-117.162503
1636587931,"2021-11-10 23:45:31",46.740473,-117.162491
1636588002,"2021-11-10 23:46:42",46.740467,-117.162536
1636592013,"2021-11-11 00:53:33",46.740393,-117.162607
1636595732,"2021-11-11 01:55:32",46.74047,-117.162492
1636596720,"2021-11-11 02:12:00",46.740473,-117.162499
1636597624,"2021-11-11 02:27:04",46.740473,-117.162511
1636598632,"2021-11-11 02:43:52",46.740475,-117.162507
1636599625,"2021-11-11 03:00:25",46.740475,-117.162456
1636600547,"2021-11-11 03:15:47",46.740475,-117.162456
1636601570,"2021-11-11 03:32:50",46.740474,-117.162492
1636602703,"2021-11-11 03:51:43",46.740474,-117.162492
1636603818,"2021-11-11 04:10:18",46.740466,-117.162507
1636607609,"2021-11-11 05:13:29",46.740474,-117.162496
1636608669,"2021-11-11 05:31:09",46.740476,-117.162505
1636609594,"2021-11-11 05:46:34",46.740473,-117.162491
1636610568,"2021-11-11 06:02:48",46.740473,-117.162491
1636614825,"2021-11-11 07:13:45",46.740475,-117.16249
1636616241,"2021-11-11 07:37:21",46.740479,-117.16249
1636621650,"2021-11-11 09:07:30",46.740479,-117.16249
1636622250,"2021-11-11 09:17:30",46.740462,-117.16248
1636636568,"2021-11-11 13:16:08",46.740473,-117.162493
1636639645,"2021-11-11 14:07:25",46.740473,-117.162493
1636642354,"2021-11-11 14:52:34",46.740473,-117.162493
1636651186,"2021-11-11 17:19:46",46.74028,-117.162084
1636651217,"2021-11-11 17:20:17",46.740469,-117.162498
1636651247,"2021-11-11 17:20:47",46.740271,-117.162619
1636653382,"2021-11-11 17:56:22",46.740477,-117.162523
1636655759,"2021-11-11 18:35:59",46.73855,-117.166525
1636655924,"2021-11-11 18:38:44",46.740456,-117.162509
1636659851,"2021-11-11 19:44:11",46.740452,-117.162504
1636660966,"2021-11-11 20:02:46",46.740452,-117.162506
1636661949,"2021-11-11 20:19:09",46.74047,-117.162501
1636662027,"2021-11-11 20:20:27",46.740198,-117.162569
1636662058,"2021-11-11 20:20:58",46.740363,-117.162086
1636662106,"2021-11-11 20:21:46",46.740461,-117.162494
1636662146,"2021-11-11 20:22:26",46.740158,-117.162479
1636662226,"2021-11-11 20:23:46",46.740465,-117.162495
1636665756,"2021-11-11 21:22:36",46.740472,-117.162481
1636666680,"2021-11-11 21:38:00",46.740465,-117.162486
1636667650,"2021-11-11 21:54:10",46.740457,-117.162501
1636668614,"2021-11-11 22:10:14",46.740468,-117.162497
1636669916,"2021-11-11 22:31:56",46.74046,-117.162496
1636670858,"2021-11-11 22:47:38",46.740466,-117.162495
1636673352,"2021-11-11 23:29:12",46.740464,-117.162493
1636674495,"2021-11-11 23:48:15",46.740464,-117.162493
1636674530,"2021-11-11 23:48:50",46.740872,-117.162595
1636674795,"2021-11-11 23:53:15",46.740872,-117.162595
1636678197,"2021-11-12 00:49:57",46.740872,-117.162595
1636679208,"2021-11-12 01:06:48",46.740872,-117.162595
1636681905,"2021-11-12 01:51:45",46.740464,-117.162499
1636682810,"2021-11-12 02:06:50",46.74047,-117.162485
1636683737,"2021-11-12 02:22:17",46.740463,-117.1625
1636685206,"2021-11-12 02:46:46",46.740463,-117.1625
1636686690,"2021-11-12 03:11:30",46.740464,-117.162499
1636687680,"2021-11-12 03:28:00",46.740466,-117.162501
1636688582,"2021-11-12 03:43:02",46.740461,-117.162505
1636689507,"2021-11-12 03:58:27",46.740462,-117.162496
1636690576,"2021-11-12 04:16:16",46.740461,-117.162498
1636691520,"2021-11-12 04:32:00",46.740454,-117.16251
1636692609,"2021-11-12 04:50:09",46.740462,-117.162497
1636695881,"2021-11-12 05:44:41",46.74046,-117.162497
1636698783,"2021-11-12 06:33:03",46.74045,-117.162492
1636995471,"2021-11-15 16:57:51",46.739458,-117.165006
1636995522,"2021-11-15 16:58:42",46.739229,-117.165443
1636995538,"2021-11-15 16:58:58",46.739187,-117.16594
1636995570,"2021-11-15 16:59:30",46.738905,-117.166411
1636995599,"2021-11-15 16:59:59",46.738757,-117.16702
1636995630,"2021-11-15 17:00:30",46.738444,-117.167191
1636995686,"2021-11-15 17:01:26",46.738072,-117.168195
1636995755,"2021-11-15 17:02:35",46.737627,-117.168054
1636995815,"2021-11-15 17:03:35",46.736986,-117.168144
1636995845,"2021-11-15 17:04:05",46.736621,-117.168396
1636995875,"2021-11-15 17:04:35",46.736049,-117.168455
1636995935,"2021-11-15 17:05:35",46.735435,-117.168364
1636995965,"2021-11-15 17:06:05",46.735173,-117.16803
1636995995,"2021-11-15 17:06:35",46.734837,-117.167886
1636996024,"2021-11-15 17:07:04",46.734451,-117.167746
1636996054,"2021-11-15 17:07:34",46.73407,-117.167998
1636996084,"2021-11-15 17:08:04",46.733626,-117.168015
1636996114,"2021-11-15 17:08:34",46.733334,-117.167972
1636996135,"2021-11-15 17:08:55",46.733042,-117.167908
1636996145,"2021-11-15 17:09:05",46.732769,-117.16785
1636996175,"2021-11-15 17:09:35",46.73232,-117.168037
1636996205,"2021-11-15 17:10:05",46.731966,-117.168106
1636996235,"2021-11-15 17:10:35",46.731561,-117.168183
1636996400,"2021-11-15 17:13:20",46.730133,-117.168109
1636997138,"2021-11-15 17:25:38",46.729782,-117.168456
1636997146,"2021-11-15 17:25:46",46.730119,-117.168144
1636999118,"2021-11-15 17:58:38",46.73014,-117.168115
1636999236,"2021-11-15 18:00:36",46.729585,-117.168339
1636999267,"2021-11-15 18:01:07",46.729304,-117.167833
1636999299,"2021-11-15 18:01:39",46.72892,-117.167347
1636999329,"2021-11-15 18:02:09",46.728949,-117.1669
1636999390,"2021-11-15 18:03:10",46.728617,-117.16651
1636999419,"2021-11-15 18:03:39",46.728338,-117.166436
1636999462,"2021-11-15 18:04:22",46.728102,-117.165635
1636999517,"2021-11-15 18:05:17",46.727995,-117.165488
1637000095,"2021-11-15 18:14:55",46.727904,-117.165028
1637000119,"2021-11-15 18:15:19",46.728045,-117.165464
1637001683,"2021-11-15 18:41:23",46.728048,-117.165479
1637004900,"2021-11-15 19:35:00",46.728048,-117.165479
1637005814,"2021-11-15 19:50:14",46.728015,-117.165507
1637006668,"2021-11-15 20:04:28",46.728035,-117.165901
1637006701,"2021-11-15 20:05:01",46.727979,-117.165508
1637006732,"2021-11-15 20:05:32",46.728027,-117.165889
1637006758,"2021-11-15 20:05:58",46.728501,-117.166212
1637006823,"2021-11-15 20:07:03",46.728504,-117.16725
1637006853,"2021-11-15 20:07:33",46.728832,-117.167034
1637007025,"2021-11-15 20:10:25",46.730142,-117.16811
1637008992,"2021-11-15 20:43:12",46.730099,-117.168098
1637009779,"2021-11-15 20:56:19",46.730384,-117.167891
1637009838,"2021-11-15 20:57:18",46.730491,-117.167259
1637009869,"2021-11-15 20:57:49",46.730717,-117.167025
1637009899,"2021-11-15 20:58:19",46.730998,-117.16724
1637009929,"2021-11-15 20:58:49",46.731425,-117.167473
1637009989,"2021-11-15 20:59:49",46.731963,-117.167516
1637010018,"2021-11-15 21:00:18",46.732681,-117.168109
1637010048,"2021-11-15 21:00:48",46.7323,-117.168016
1637010079,"2021-11-15 21:01:19",46.732741,-117.167956
1637010108,"2021-11-15 21:01:48",46.733186,-117.167925
1637010142,"2021-11-15 21:02:22",46.733455,-117.167875
1637010199,"2021-11-15 21:03:19",46.734139,-117.167891
1637010228,"2021-11-15 21:03:48",46.734442,-117.167991
1637010259,"2021-11-15 21:04:19",46.734782,-117.167732
1637010272,"2021-11-15 21:04:32",46.735181,-117.167686
1637010319,"2021-11-15 21:05:19",46.735492,-117.16832
1637010349,"2021-11-15 21:05:49",46.735834,-117.168297
1637010376,"2021-11-15 21:06:16",46.73639,-117.168145
1637010407,"2021-11-15 21:06:47",46.736724,-117.168152
1637010438,"2021-11-15 21:07:18",46.737294,-117.168098
1637010469,"2021-11-15 21:07:49",46.737602,-117.168154
1637010500,"2021-11-15 21:08:20",46.737924,-117.168423
1637010529,"2021-11-15 21:08:49",46.738106,-117.167832
1637010618,"2021-11-15 21:10:18",46.738566,-117.167528
1637010649,"2021-11-15 21:10:49",46.738774,-117.167056
1637010678,"2021-11-15 21:11:18",46.738836,-117.166518
1637010700,"2021-11-15 21:11:40",46.739275,-117.165982
1637010731,"2021-11-15 21:12:11",46.739064,-117.166276
1637010739,"2021-11-15 21:12:19",46.739277,-117.16558
1637010763,"2021-11-15 21:12:43",46.739351,-117.165009
1637010798,"2021-11-15 21:13:18",46.739543,-117.164348
1637010827,"2021-11-15 21:13:47",46.739736,-117.163507
1637010858,"2021-11-15 21:14:18",46.739818,-117.164131
1637010889,"2021-11-15 21:14:49",46.740184,-117.162922
1637010919,"2021-11-15 21:15:19",46.740321,-117.162565
1637010920,"2021-11-15 21:15:20",46.740321,-117.162565
1637012915,"2021-11-15 21:48:35",46.740457,-117.162497
1637015632,"2021-11-15 22:33:52",46.740457,-117.162497
1637015912,"2021-11-15 22:38:32",46.740863,-117.162626
1637016675,"2021-11-15 22:51:15",46.740466,-117.162499
1637019104,"2021-11-15 23:31:44",46.740456,-117.16249
1637020858,"2021-11-16 00:00:58",46.740464,-117.162505
1637020870,"2021-11-16 00:01:10",46.740448,-117.162092
1637020890,"2021-11-16 00:01:30",46.740441,-117.162518
1637022303,"2021-11-16 00:25:03",46.740493,-117.162463
1637023245,"2021-11-16 00:40:45",46.740468,-117.162501
1637023829,"2021-11-16 00:50:29",46.740462,-117.162496
1637024275,"2021-11-16 00:57:55",46.740462,-117.162496
1637024440,"2021-11-16 01:00:40",46.740462,-117.162494
1637025110,"2021-11-16 01:11:50",46.740477,-117.162509
1637025900,"2021-11-16 01:25:00",46.740435,-117.161956
1637025907,"2021-11-16 01:25:07",46.740468,-117.162441
1637026674,"2021-11-16 01:37:54",46.740465,-117.162495
1637027924,"2021-11-16 01:58:44",46.740467,-117.162497
1637031877,"2021-11-16 03:04:37",46.740472,-117.162509
1637095830,"2021-11-16 20:50:30",46.74046,-117.162489
1637095993,"2021-11-16 20:53:13",46.740467,-117.162488
1637096113,"2021-11-16 20:55:13",46.740312,-117.162763
1637096578,"2021-11-16 21:02:58",46.740405,-117.162369
1637096653,"2021-11-16 21:04:13",46.740324,-117.161697
1637096684,"2021-11-16 21:04:44",46.74035,-117.161188
1637096713,"2021-11-16 21:05:13",46.740475,-117.160674
1637096744,"2021-11-16 21:05:44",46.74039,-117.160277
1637096774,"2021-11-16 21:06:14",46.740606,-117.159474
1637096803,"2021-11-16 21:06:43",46.740428,-117.159059
1637096833,"2021-11-16 21:07:13",46.740148,-117.158343
1637096854,"2021-11-16 21:07:34",46.739994,-117.157972
1637096885,"2021-11-16 21:08:05",46.742486,-117.158748
1637096893,"2021-11-16 21:08:13",46.74009,-117.157069
1637096923,"2021-11-16 21:08:43",46.739993,-117.156482
1637096949,"2021-11-16 21:09:09",46.742501,-117.158735
1637096983,"2021-11-16 21:09:43",46.739754,-117.15524
1637097013,"2021-11-16 21:10:13",46.739333,-117.15547
1637097043,"2021-11-16 21:10:43",46.738882,-117.155542
1637097073,"2021-11-16 21:11:13",46.738619,-117.155654
1637097104,"2021-11-16 21:11:44",46.738075,-117.155291
1637097134,"2021-11-16 21:12:14",46.737708,-117.155253
1637097163,"2021-11-16 21:12:43",46.737291,-117.156277
1637097223,"2021-11-16 21:13:43",46.736485,-117.157022
1637097253,"2021-11-16 21:14:13",46.736019,-117.157904
1637097283,"2021-11-16 21:14:43",46.735675,-117.15722
1637097313,"2021-11-16 21:15:13",46.735156,-117.156914
1637097340,"2021-11-16 21:15:40",46.73511,-117.157456
1637097370,"2021-11-16 21:16:10",46.734777,-117.156919
1637097401,"2021-11-16 21:16:41",46.734529,-117.157511
1637097432,"2021-11-16 21:17:12",46.734007,-117.158005
1637097463,"2021-11-16 21:17:43",46.733452,-117.158466
1637097493,"2021-11-16 21:18:13",46.733044,-117.159036
1637097524,"2021-11-16 21:18:44",46.732442,-117.158614
1637097553,"2021-11-16 21:19:13",46.732188,-117.158792
1637097583,"2021-11-16 21:19:43",46.731749,-117.158897
1637097613,"2021-11-16 21:20:13",46.731147,-117.159092
1637097684,"2021-11-16 21:21:24",46.730845,-117.158894
1637097703,"2021-11-16 21:21:43",46.730368,-117.159215
1637097734,"2021-11-16 21:22:14",46.730009,-117.159261
1637097763,"2021-11-16 21:22:43",46.729935,-117.160197
1637097794,"2021-11-16 21:23:14",46.729657,-117.160094
1637097823,"2021-11-16 21:23:43",46.729213,-117.16081
1637097853,"2021-11-16 21:24:13",46.728948,-117.161195
1637097882,"2021-11-16 21:24:42",46.728714,-117.161797
1637097913,"2021-11-16 21:25:13",46.728483,-117.162218
1637097934,"2021-11-16 21:25:34",46.728614,-117.163061
1637097943,"2021-11-16 21:25:43",46.728223,-117.163201
1637098003,"2021-11-16 21:26:43",46.72792,-117.164424
1637098064,"2021-11-16 21:27:44",46.728007,-117.164929
1637098095,"2021-11-16 21:28:15",46.728025,-117.165536
1637100195,"2021-11-16 22:03:15",46.728173,-117.165808
1637102886,"2021-11-16 22:48:06",46.728173,-117.165808
1637102911,"2021-11-16 22:48:31",46.72818,-117.165869
1637103086,"2021-11-16 22:51:26",46.727954,-117.165629
1637103190,"2021-11-16 22:53:10",46.727903,-117.166053
1637103353,"2021-11-16 22:55:53",46.729078,-117.167079
1637103409,"2021-11-16 22:56:49",46.729412,-117.168144
1637103438,"2021-11-16 22:57:18",46.729358,-117.168538
1637103470,"2021-11-16 22:57:50",46.729596,-117.168855
1637103584,"2021-11-16 22:59:44",46.728384,-117.168932
1637103600,"2021-11-16 23:00:00",46.730116,-117.168846
1637103930,"2021-11-16 23:05:30",46.729891,-117.168468
1637103936,"2021-11-16 23:05:36",46.730123,-117.16884
1637103997,"2021-11-16 23:06:37",46.729858,-117.168332
1637104003,"2021-11-16 23:06:43",46.730109,-117.168836
1637104726,"2021-11-16 23:18:46",46.729503,-117.168804
1637104760,"2021-11-16 23:19:20",46.729215,-117.16926
1637104786,"2021-11-16 23:19:46",46.729404,-117.169822
1637104806,"2021-11-16 23:20:06",46.729352,-117.170259
1637104846,"2021-11-16 23:20:46",46.729537,-117.170565
1637104865,"2021-11-16 23:21:05",46.729233,-117.170857
1637104908,"2021-11-16 23:21:48",46.729448,-117.171587
1637104958,"2021-11-16 23:22:38",46.730807,-117.172188
1637104969,"2021-11-16 23:22:49",46.729634,-117.17185
1637104990,"2021-11-16 23:23:10",46.731715,-117.172356
1637104999,"2021-11-16 23:23:19",46.7297,-117.171859
1637105024,"2021-11-16 23:23:44",46.730905,-117.171875
1637105047,"2021-11-16 23:24:07",46.728909,-117.171467
1637105058,"2021-11-16 23:24:18",46.726326,-117.170534
1637105070,"2021-11-16 23:24:30",46.725845,-117.169507
1637105086,"2021-11-16 23:24:46",46.725589,-117.168278
1637105116,"2021-11-16 23:25:16",46.72364,-117.165665
1637105149,"2021-11-16 23:25:49",46.72304,-117.165396
1637105197,"2021-11-16 23:26:37",46.723821,-117.165257
1637105209,"2021-11-16 23:26:49",46.723927,-117.165861
1637105231,"2021-11-16 23:27:11",46.725636,-117.167217
1637105236,"2021-11-16 23:27:16",46.726181,-117.167185
1637105257,"2021-11-16 23:27:37",46.726745,-117.165894
1637105289,"2021-11-16 23:28:09",46.727261,-117.164566
1637105299,"2021-11-16 23:28:19",46.727728,-117.163701
1637105311,"2021-11-16 23:28:31",46.728295,-117.162891
1637105326,"2021-11-16 23:28:46",46.728426,-117.161679
1637105355,"2021-11-16 23:29:15",46.729897,-117.160484
1637105386,"2021-11-16 23:29:46",46.721716,-117.167985
1637105407,"2021-11-16 23:30:07",46.732325,-117.159636
1637105416,"2021-11-16 23:30:16",46.732589,-117.159263
1637105449,"2021-11-16 23:30:49",46.734791,-117.159113
1637105476,"2021-11-16 23:31:16",46.736005,-117.159374
1637105496,"2021-11-16 23:31:36",46.732899,-117.152937
1637105506,"2021-11-16 23:31:46",46.737453,-117.155321
1637105536,"2021-11-16 23:32:16",46.73973,-117.156205
1637105566,"2021-11-16 23:32:46",46.740605,-117.159521
1637105587,"2021-11-16 23:33:07",46.742627,-117.156817
1637105598,"2021-11-16 23:33:18",46.742996,-117.155626
1637105619,"2021-11-16 23:33:39",46.743349,-117.155049
1637105626,"2021-11-16 23:33:46",46.743921,-117.1543
1637105647,"2021-11-16 23:34:07",46.744912,-117.151581
1637105656,"2021-11-16 23:34:16",46.745366,-117.151577
1637105677,"2021-11-16 23:34:37",46.747264,-117.150617
1637105686,"2021-11-16 23:34:46",46.747765,-117.150639
1637105707,"2021-11-16 23:35:07",46.748729,-117.151033
1637105740,"2021-11-16 23:35:40",46.748015,-117.150772
1637105749,"2021-11-16 23:35:49",46.748543,-117.151213
1637105767,"2021-11-16 23:36:07",46.747224,-117.150675
1637105779,"2021-11-16 23:36:19",46.745905,-117.151495
1637105799,"2021-11-16 23:36:39",46.744091,-117.153164
1637105809,"2021-11-16 23:36:49",46.743899,-117.15378
1637105829,"2021-11-16 23:37:09",46.743224,-117.155051
1637105858,"2021-11-16 23:37:38",46.742744,-117.156159
1637105866,"2021-11-16 23:37:46",46.742506,-117.156844
1637105887,"2021-11-16 23:38:07",46.740597,-117.159616
1637105896,"2021-11-16 23:38:16",46.741216,-117.159333
1637105921,"2021-11-16 23:38:41",46.740094,-117.162062
1637106001,"2021-11-16 23:40:01",46.740461,-117.162493
1637618614,"2021-11-22 22:03:34",46.74048,-117.162501
1637620287,"2021-11-22 22:31:27",46.739999,-117.162643
1637620295,"2021-11-22 22:31:35",46.740462,-117.162487
1637621518,"2021-11-22 22:51:58",46.740766,-117.162638
1637621524,"2021-11-22 22:52:04",46.740403,-117.162763
1637621531,"2021-11-22 22:52:11",46.740142,-117.162941
1637621557,"2021-11-22 22:52:37",46.740144,-117.163338
1637621579,"2021-11-22 22:52:59",46.740016,-117.163695
1637621599,"2021-11-22 22:53:19",46.739863,-117.164028
1637621619,"2021-11-22 22:53:39",46.739682,-117.164335
1637621639,"2021-11-22 22:53:59",46.739592,-117.164722
1637621659,"2021-11-22 22:54:19",46.739471,-117.165081
1637621679,"2021-11-22 22:54:39",46.739346,-117.165442
1637621699,"2021-11-22 22:54:59",46.739182,-117.165774
1637621718,"2021-11-22 22:55:18",46.739054,-117.166134
1637621738,"2021-11-22 22:55:38",46.738964,-117.166523
1637621761,"2021-11-22 22:56:01",46.738935,-117.166923
1637621779,"2021-11-22 22:56:19",46.738799,-117.167263
1637621797,"2021-11-22 22:56:37",46.738662,-117.167606
1637621828,"2021-11-22 22:57:08",46.738447,-117.168014
1637621878,"2021-11-22 22:57:58",46.738392,-117.168671
1637621909,"2021-11-22 22:58:29",46.73857,-117.169278
1637621937,"2021-11-22 22:58:57",46.739131,-117.170568
1637621959,"2021-11-22 22:59:19",46.738923,-117.170106
1637621998,"2021-11-22 22:59:58",46.739255,-117.170802
1637622028,"2021-11-22 23:00:28",46.739379,-117.171277
1637622042,"2021-11-22 23:00:42",46.739593,-117.172562
1637622058,"2021-11-22 23:00:58",46.73943,-117.171827
1637622088,"2021-11-22 23:01:28",46.739774,-117.172361
1637622178,"2021-11-22 23:02:58",46.739721,-117.172847
1637622269,"2021-11-22 23:04:29",46.740087,-117.173177
1637622295,"2021-11-22 23:04:55",46.739797,-117.172977
1637622328,"2021-11-22 23:05:28",46.739767,-117.174129
1637622640,"2021-11-22 23:10:40",46.738387,-117.171392
1637622659,"2021-11-22 23:10:59",46.739655,-117.171213
1637622679,"2021-11-22 23:11:19",46.739674,-117.173677
1637622711,"2021-11-22 23:11:51",46.739375,-117.174034
1637622742,"2021-11-22 23:12:22",46.73966,-117.171213
1637622774,"2021-11-22 23:12:54",46.73958,-117.173756
1637622833,"2021-11-22 23:13:53",46.739641,-117.172967
1637622873,"2021-11-22 23:14:33",46.739687,-117.172176
1637622893,"2021-11-22 23:14:53",46.739735,-117.17314
1637622926,"2021-11-22 23:15:26",46.739347,-117.172743
1637622979,"2021-11-22 23:16:19",46.739651,-117.171336
1637622988,"2021-11-22 23:16:28",46.739424,-117.172477
1637623010,"2021-11-22 23:16:50",46.739684,-117.171803
1637623018,"2021-11-22 23:16:58",46.739587,-117.172171
1637623043,"2021-11-22 23:17:23",46.739559,-117.171745
1637623073,"2021-11-22 23:17:53",46.739451,-117.172482
1637623078,"2021-11-22 23:17:58",46.738956,-117.172764
1637623108,"2021-11-22 23:18:28",46.738403,-117.172974
1637623139,"2021-11-22 23:18:59",46.737937,-117.172637
1637623169,"2021-11-22 23:19:29",46.737644,-117.173103
1637623288,"2021-11-22 23:21:28",46.737275,-117.17342
1637623319,"2021-11-22 23:21:59",46.73683,-117.17378
1637623378,"2021-11-22 23:22:58",46.736483,-117.173754
1637623409,"2021-11-22 23:23:29",46.736342,-117.174252
1637623469,"2021-11-22 23:24:29",46.735585,-117.17475
1637623498,"2021-11-22 23:24:58",46.73534,-117.175042
1637623509,"2021-11-22 23:25:09",46.736305,-117.174737
1637623528,"2021-11-22 23:25:28",46.735251,-117.175539
1637623541,"2021-11-22 23:25:41",46.734882,-117.174668
1637623558,"2021-11-22 23:25:58",46.735115,-117.175568
1637623573,"2021-11-22 23:26:13",46.735133,-117.174879
1637623588,"2021-11-22 23:26:28",46.735085,-117.175586
1637623604,"2021-11-22 23:26:44",46.736602,-117.174815
1637623618,"2021-11-22 23:26:58",46.735109,-117.175585
1637623637,"2021-11-22 23:27:17",46.733212,-117.176751
1637623648,"2021-11-22 23:27:28",46.734696,-117.176325
1637623666,"2021-11-22 23:27:46",46.736384,-117.174875
1637623679,"2021-11-22 23:27:59",46.734229,-117.176799
1637623698,"2021-11-22 23:28:18",46.733777,-117.177222
1637623828,"2021-11-22 23:30:28",46.733079,-117.178384
1637623854,"2021-11-22 23:30:54",46.733364,-117.178993
1637623859,"2021-11-22 23:30:59",46.732756,-117.179048
1637623918,"2021-11-22 23:31:58",46.732624,-117.180555
1637623948,"2021-11-22 23:32:28",46.732478,-117.179403
1637624008,"2021-11-22 23:33:28",46.731822,-117.179801
1637624038,"2021-11-22 23:33:58",46.731448,-117.180185
1637624068,"2021-11-22 23:34:28",46.731149,-117.180492
1637624140,"2021-11-22 23:35:40",46.730635,-117.18049
1637624159,"2021-11-22 23:35:59",46.73088,-117.180945
1637624172,"2021-11-22 23:36:12",46.730517,-117.180749
1637624188,"2021-11-22 23:36:28",46.730861,-117.180956
1637624203,"2021-11-22 23:36:43",46.730471,-117.181319
1637624218,"2021-11-22 23:36:58",46.730856,-117.18101
1637624248,"2021-11-22 23:37:28",46.730077,-117.181319
1637624299,"2021-11-22 23:38:19",46.730199,-117.181715
1637625489,"2021-11-22 23:58:09",46.730593,-117.181675
1637625499,"2021-11-22 23:58:19",46.730214,-117.181729
1637626572,"2021-11-23 00:16:12",46.730517,-117.181322
1637626670,"2021-11-23 00:17:50",46.730574,-117.18084
1637626730,"2021-11-23 00:18:50",46.730856,-117.180544
1637626759,"2021-11-23 00:19:19",46.731147,-117.180354
1637626779,"2021-11-23 00:19:39",46.73153,-117.179416
1637626790,"2021-11-23 00:19:50",46.73153,-117.179989
1637626819,"2021-11-23 00:20:19",46.730636,-117.18099
1637626841,"2021-11-23 00:20:41",46.732626,-117.179724
1637626849,"2021-11-23 00:20:49",46.732166,-117.179529
1637626927,"2021-11-23 00:22:07",46.73208,-117.179057
1637626939,"2021-11-23 00:22:19",46.732407,-117.178963
1637626960,"2021-11-23 00:22:40",46.733352,-117.177531
1637626969,"2021-11-23 00:22:49",46.733133,-117.178605
1637627019,"2021-11-23 00:23:39",46.733406,-117.177685
1637627029,"2021-11-23 00:23:49",46.733487,-117.178062
1637627060,"2021-11-23 00:24:20",46.733809,-117.177706
1637627075,"2021-11-23 00:24:35",46.733824,-117.177277
1637627109,"2021-11-23 00:25:09",46.733512,-117.17743
1637627120,"2021-11-23 00:25:20",46.734121,-117.177239
1637627149,"2021-11-23 00:25:49",46.734243,-117.17576
1637627181,"2021-11-23 00:26:21",46.734702,-117.176129
1637627210,"2021-11-23 00:26:50",46.734723,-117.176585
1637627240,"2021-11-23 00:27:20",46.734982,-117.176008
1637627269,"2021-11-23 00:27:49",46.73532,-117.1759
1637627320,"2021-11-23 00:28:40",46.736123,-117.175512
1637627330,"2021-11-23 00:28:50",46.735765,-117.175793
1637627360,"2021-11-23 00:29:20",46.735965,-117.175358
1637627390,"2021-11-23 00:29:50",46.736445,-117.175267
1637627420,"2021-11-23 00:30:20",46.736715,-117.174767
1637627450,"2021-11-23 00:30:50",46.736995,-117.174629
1637627471,"2021-11-23 00:31:11",46.737851,-117.17445
1637627480,"2021-11-23 00:31:20",46.737242,-117.174474
1637627510,"2021-11-23 00:31:50",46.737625,-117.174176
1637627534,"2021-11-23 00:32:14",46.738103,-117.174276
1637627540,"2021-11-23 00:32:20",46.73784,-117.174079
1637627566,"2021-11-23 00:32:46",46.738401,-117.174397
1637627597,"2021-11-23 00:33:17",46.738693,-117.173828
1637627629,"2021-11-23 00:33:49",46.739025,-117.173677
1637627659,"2021-11-23 00:34:19",46.739214,-117.173328
1637627690,"2021-11-23 00:34:50",46.739306,-117.174016
1637627720,"2021-11-23 00:35:20",46.739033,-117.174183
1637627751,"2021-11-23 00:35:51",46.739353,-117.174095
1637627780,"2021-11-23 00:36:20",46.739668,-117.173738
1637627808,"2021-11-23 00:36:48",46.739718,-117.174257
1637627838,"2021-11-23 00:37:18",46.739843,-117.173699
1637628080,"2021-11-23 00:41:20",46.739583,-117.173528
1637628089,"2021-11-23 00:41:29",46.739592,-117.172731
1637628169,"2021-11-23 00:42:49",46.739862,-117.172807
1637628185,"2021-11-23 00:43:05",46.740039,-117.172212
1637628200,"2021-11-23 00:43:20",46.739753,-117.172468
1637628218,"2021-11-23 00:43:38",46.73957,-117.171462
1637628230,"2021-11-23 00:43:50",46.739537,-117.171975
1637628249,"2021-11-23 00:44:09",46.739515,-117.171219
1637628260,"2021-11-23 00:44:20",46.739559,-117.171746
1637628281,"2021-11-23 00:44:41",46.739271,-117.17142
1637628320,"2021-11-23 00:45:20",46.739067,-117.17054
1637628351,"2021-11-23 00:45:51",46.738918,-117.170133
1637628376,"2021-11-23 00:46:16",46.738788,-117.169675
1637628381,"2021-11-23 00:46:21",46.738444,-117.169733
1637628410,"2021-11-23 00:46:50",46.738465,-117.168771
1637628470,"2021-11-23 00:47:50",46.738293,-117.168358
1637628501,"2021-11-23 00:48:21",46.738461,-117.167716
1637628530,"2021-11-23 00:48:50",46.738596,-117.167373
1637628560,"2021-11-23 00:49:20",46.738708,-117.166814
1637628590,"2021-11-23 00:49:50",46.738837,-117.166214
1637628621,"2021-11-23 00:50:21",46.73913,-117.166395
1637628650,"2021-11-23 00:50:50",46.739258,-117.165446
1637628661,"2021-11-23 00:51:01",46.739328,-117.164931
1637628710,"2021-11-23 00:51:50",46.739783,-117.164506
1637628740,"2021-11-23 00:52:20",46.739902,-117.164142
1637628769,"2021-11-23 00:52:49",46.739958,-117.163614
1637628787,"2021-11-23 00:53:07",46.739884,-117.16282
1637628830,"2021-11-23 00:53:50",46.740347,-117.162522
1637631844,"2021-11-23 01:44:04",46.740466,-117.162474
1637632272,"2021-11-23 01:51:12",46.74035,-117.16326
1637632450,"2021-11-23 01:54:10",46.740469,-117.162481
1637632846,"2021-11-23 02:00:46",46.740477,-117.162514
1637634021,"2021-11-23 02:20:21",46.740473,-117.162485
1637637360,"2021-11-23 03:16:00",46.740473,-117.162481
1637640617,"2021-11-23 04:10:17",46.740486,-117.162533
1637643731,"2021-11-23 05:02:11",46.740486,-117.162533
1637645067,"2021-11-23 05:24:27",46.740453,-117.162501
1637646114,"2021-11-23 05:41:54",46.740465,-117.162509
1637647124,"2021-11-23 05:58:44",46.740243,-117.162633
1637650647,"2021-11-23 06:57:27",46.740461,-117.162489
1637655028,"2021-11-23 08:10:28",46.740471,-117.162497
1637657687,"2021-11-23 08:54:47",46.740471,-117.162497
1637661007,"2021-11-23 09:50:07",46.74046,-117.162494
1637664005,"2021-11-23 10:40:05",46.74046,-117.162494
1637667001,"2021-11-23 11:30:01",46.74046,-117.162494
1637670169,"2021-11-23 12:22:49",46.74046,-117.162494
1637671543,"2021-11-23 12:45:43",46.74046,-117.162494
1637674670,"2021-11-23 13:37:50",46.740457,-117.162491
1637677571,"2021-11-23 14:26:11",46.740457,-117.162491
1637680589,"2021-11-23 15:16:29",46.740457,-117.162491
1637683436,"2021-11-23 16:03:56",46.740457,-117.162491
1637686512,"2021-11-23 16:55:12",46.740457,-117.162491
1637689441,"2021-11-23 17:44:01",46.740457,-117.162491
1637692436,"2021-11-23 18:33:56",46.740457,-117.162491
1637693434,"2021-11-23 18:50:34",46.740457,-117.162491
1637696861,"2021-11-23 19:47:41",46.740456,-117.16249
1637699304,"2021-11-23 20:28:24",46.740456,-117.16249
1637700516,"2021-11-23 20:48:36",46.740392,-117.162447
1637702258,"2021-11-23 21:17:38",46.740464,-117.1625
1637702906,"2021-11-23 21:28:26",46.737262,-117.168583
1637703509,"2021-11-23 21:38:29",46.737262,-117.168583
1637703546,"2021-11-23 21:39:06",46.740461,-117.1625
1637706000,"2021-11-23 22:20:00",46.740478,-117.162486
1637707276,"2021-11-23 22:41:16",46.740476,-117.16251
1637708201,"2021-11-23 22:56:41",46.740476,-117.16251
1637709376,"2021-11-23 23:16:16",46.740471,-117.162516
1637710761,"2021-11-23 23:39:21",46.740471,-117.162516
1637711012,"2021-11-23 23:43:32",46.740463,-117.16249
1637713210,"2021-11-24 00:20:10",46.740471,-117.16251
1637714308,"2021-11-24 00:38:28",46.740474,-117.162506
1637717334,"2021-11-24 01:28:54",46.740467,-117.162511
1637721202,"2021-11-24 02:33:22",46.740473,-117.162468
1637722102,"2021-11-24 02:48:22",46.740448,-117.162484
1637723004,"2021-11-24 03:03:24",46.740476,-117.16249
1637723909,"2021-11-24 03:18:29",46.740462,-117.162503
1637724827,"2021-11-24 03:33:47",46.740463,-117.162507
1637725750,"2021-11-24 03:49:10",46.740398,-117.162617
1637726765,"2021-11-24 04:06:05",46.740463,-117.162525
1637727712,"2021-11-24 04:21:52",46.740456,-117.162503
1637728774,"2021-11-24 04:39:34",46.740463,-117.162505
1637729688,"2021-11-24 04:54:48",46.74047,-117.162523
1637730642,"2021-11-24 05:10:42",46.740462,-117.162519
1637731616,"2021-11-24 05:26:56",46.740468,-117.162477
1637734797,"2021-11-24 06:19:57",46.740464,-117.162492
1637738845,"2021-11-24 07:27:25",46.740321,-117.162502
1637741247,"2021-11-24 08:07:27",46.740321,-117.162502
1637744938,"2021-11-24 09:08:58",46.740498,-117.162355
1637748147,"2021-11-24 10:02:27",46.740498,-117.162355
1637751234,"2021-11-24 10:53:54",46.740498,-117.162355
1637754399,"2021-11-24 11:46:39",46.740498,-117.162355
1637757393,"2021-11-24 12:36:33",46.740466,-117.162504
1637760351,"2021-11-24 13:25:51",46.740466,-117.162504
1637763523,"2021-11-24 14:18:43",46.740466,-117.162504
1637766545,"2021-11-24 15:09:05",46.740466,-117.162504
1637769779,"2021-11-24 16:02:59",46.740466,-117.162504
1637772870,"2021-11-24 16:54:30",46.740466,-117.162504
1637775884,"2021-11-24 17:44:44",46.740466,-117.162504
1637776837,"2021-11-24 18:00:37",46.740453,-117.162524
1637780092,"2021-11-24 18:54:52",46.740453,-117.162524
1637781099,"2021-11-24 19:11:39",46.740456,-117.162495
1637782459,"2021-11-24 19:34:19",46.740458,-117.162496
1637791357,"2021-11-24 22:02:37",46.737671,-117.16953
1637791382,"2021-11-24 22:03:02",46.74045,-117.162503
1637794631,"2021-11-24 22:57:11",46.74045,-117.162516
1637795737,"2021-11-24 23:15:37",46.740453,-117.162516
1637797816,"2021-11-24 23:50:16",46.738801,-117.163847
1637797829,"2021-11-24 23:50:29",46.740264,-117.162782
1637797839,"2021-11-24 23:50:39",46.74047,-117.162524
1637801212,"2021-11-25 00:46:52",46.740445,-117.162508
1637802116,"2021-11-25 01:01:56",46.740455,-117.1625
1637803029,"2021-11-25 01:17:09",46.740465,-117.162489
1637803974,"2021-11-25 01:32:54",46.740468,-117.162515
1637804878,"2021-11-25 01:47:58",46.740465,-117.162491
1637805782,"2021-11-25 02:03:02",46.740471,-117.162496
1637806689,"2021-11-25 02:18:09",46.740465,-117.162491
1637807619,"2021-11-25 02:33:39",46.740455,-117.16251
1637808521,"2021-11-25 02:48:41",46.740455,-117.16251
1637960051,"2021-11-26 20:54:11",46.740467,-117.162491
1637960723,"2021-11-26 21:05:23",46.740305,-117.161627
1637960754,"2021-11-26 21:05:54",46.740061,-117.162019
1637960772,"2021-11-26 21:06:12",46.740151,-117.161173
1637960784,"2021-11-26 21:06:24",46.740347,-117.160616
1637960814,"2021-11-26 21:06:54",46.740311,-117.159519
1637960828,"2021-11-26 21:07:08",46.740863,-117.159788
1637960844,"2021-11-26 21:07:24",46.741194,-117.158584
1637960874,"2021-11-26 21:07:54",46.741719,-117.157675
1637960904,"2021-11-26 21:08:24",46.741753,-117.156538
1637960934,"2021-11-26 21:08:54",46.741665,-117.155307
1637960965,"2021-11-26 21:09:25",46.742001,-117.154803
1637960994,"2021-11-26 21:09:54",46.742421,-117.154267
1637961023,"2021-11-26 21:10:23",46.742849,-117.15368
1637961054,"2021-11-26 21:10:54",46.743271,-117.15266
1637961084,"2021-11-26 21:11:24",46.743312,-117.151766
1637961982,"2021-11-26 21:26:22",46.742534,-117.149041
